[   
    {
        "id": 0,
        "image": "http://127.0.0.1:3000/images/gg_logo.png",
        "name": "红阳代肝的公告",
        "phone": "无",
        "address": "先前提示：1.     只接官服，不接任何关于打牌类的活动(因为我他喵不会玩那玩意)。2.     如果游戏练度无法达到11层6星，需在所有价格上加5~10元3.     不收有有开挂嫌疑，和自抽号的账号。一经发现，永久黑名单。4.     价格表随时变更更新请以联系上主播交流中的价格表为主。5.     恶意钻价格表漏洞拉黑。时间记的价格未满一个单位价格按一单位价格计算。6.     下单默认同意资源共享(允许各个号互相收集) 。 7.     价格表供参考，有其他意愿和具体价格请与我联系哦。8.     请至少先付清80％的钱款，比例越高，主播干劲越 2.   当如果你上号发现委托未做，米游社显示委托未做，树脂未清请不要惊慌。可能原因为：A.   为加快效率和防止因自身材料不足，套餐一和套餐二会在其他人的世界共同做4个人的4个委托，这种方式不会减少你任何收益。同高等级世界做委托是所有人都会获得且为进入人世界等级的奖励，{{但这种方式会导致除P1外的所有人委托任务还在任务栏里，并且米游社显示未做每日委托。可通过进入游戏打本世界委托，此时完成任务不会再有奖励或者冒险家图鉴内的委托一栏是否显示为今日额外奖励已领取或者米游社的原石获取记录查询。(4.0版本前机制)}}B.   米游社的记录是有一定时间的延迟的。 C.   因己方导致的未达标或跑单将自动往后补齐损失的天数，如果长期断天退款剩余所有余额。 3.   长期类的交易不支持时刻直播。（同时建议长期类验证多个设备：模拟器，主电脑，手机，云原神，来保证每天按时不拖欠。） 4.  连续时间不支持中断和暂停，因为非本方原因的停止依旧计算本次时间消耗。 ",
        "businessHours": "001"
    },
    {
        "id": 1,
        "image": "http://127.0.0.1:3000/images/ys_logo.png",
        "name": "每日委托 套餐一",
        "phone": "25元/1月(前几名减免5元)",
        "address": "套餐一为做完4个委托拿到凯瑟琳奖励（拿齐每天的60原石）就结束。如遇其他世界委托已经完成，自身材料也不够时，被阻挡，则停止任务。(如:应急补给(现在版本好像不需要自己提供了)，回头客等)",
        "businessHours": "001"
    },
    {
        "id": 2,
        "image": "http://127.0.0.1:3000/images/ys_logo.png",
        "name": "每日委托 套餐二",
        "phone": "30元一个月",
        "address": "可指定复杂多次的目标，每天可能多次登录，尽量防止体力溢出。当出现目标无法完成的任务时自动转移目标。",
        "businessHours": "001"
    },
    {
        "id": 3,
        "image": "http://127.0.0.1:3000/images/ys_logo.png",
        "name": "每日体力 套餐一",
        "phone": "25元一个月",
        "address": "可指定简单目标，每天上线清理一次到20树脂以下为结束，当目标无法完成时则会停止清理树脂。",
        "businessHours": "001"
    },
    {
        "id": 4,
        "image": "http://127.0.0.1:3000/images/ys_logo.png",
        "name": "每日体力 套餐二",
        "phone": "30元一个月",
        "address": "可指定复杂多次的目标，每天可能多次登录，尽量防止体力溢出。当出现目标无法完成的任务时自动转移目标。",
        "businessHours": "001"
    },
    {
        "id": 5,
        "image": "http://127.0.0.1:3000/images/ys_logo.png",
        "name": "活动任务",
        "phone": "40倍率",
        "address": "倍率计算方式：以20倍率为例，本次活动获得1000原石+其他物品。则本次活动该付出1000/20=50元。下限5元。无法明确计算的任务不接。 ",
        "businessHours": "001"
    },
    {
        "id": 6,
        "image": "http://127.0.0.1:3000/images/ys_logo.png",
        "name": "收集:神瞳，键纹，流明石....",
        "phone": " 见简介",
        "address": "1.   基础计算方法：以b站up主影月月神瞳视频时间长度除4价格，但具体价格仍由代肝所消耗的时长除4（中途如果因为大型解密或者任务而拦截的目标而计时），此计算出来的价格仅为标准./实际价格的最高与最低：200%视频时长价格≥代肝实际时长价格（最终交易价格）/连续超过一次2h后的每一小时在最终价格上加上5元。/未满1h的时间任务统统基础价格计为15元。",
        "businessHours": "001"
    },
    {
        "id": 7,
        "image": "http://127.0.0.1:3000/images/ys_logo.png",
        "name": "神瞳单找",
        "phone": "一元一个",
        "address": "1.   以收集材料做共鸣石的方法，不需自备材料。2.   当剩余目标量约超过10个的时候不接此类型",
        "businessHours": "001"
    },
    {
        "id": 8,
        "image": "http://127.0.0.1:3000/images/ys_logo.png",
        "name": "收集类材料",
        "phone": "0.2元一个",
        "address": "1.  默认认为允许分批交付(因为一个世界材料有限，和陌生人让进率)       2.按原神合成表换算成最低级类型然后结算价格。",
        "businessHours": "001"
    },
    {
        "id": 9,
        "image": "http://127.0.0.1:3000/images/ys_logo.png",
        "name": "掉落类材料",
        "phone": "0.05元一个",
        "address": "1.  默认认为允许分批交付(因为一个世界材料有限，和陌生人让进率)       2.按原神合成表换算成最低级类型然后结算价格。3. 过低练度正常情况不接，低练度每个单位价格上加0.05",
        "businessHours": "001"
    },
    {
        "id": 10,
        "image": "http://127.0.0.1:3000/images/ys_logo.png",
        "name": "深渊",
        "phone": "6元一个月（两期）",
        "address": "警告:本人是代肝不是凹深渊主播，所以不凹，能打到几层就几层，不补星。请在自身号练度很高，能轻松打通但因为其他时间原因未打的情况下联系我。",
        "businessHours": "001"
    },
    {
        "id": 11,
        "image": "http://127.0.0.1:3000/images/end_logo.png",
        "name": "广告位招租",
        "phone": "无",
        "address": "无",
        "businessHours": "null"
    },
    {
        "id": 12,
        "image": "http://127.0.0.1:3000/images/end_logo.png",
        "name": "广告位招租",
        "phone": "无",
        "address": "无",
        "businessHours": "null"
    },
    {
        "id": 13,
        "image": "http://127.0.0.1:3000/images/end_logo.png",
        "name": "广告位招租",
        "phone": "无",
        "address": "无",
        "businessHours": "null"
    },
    {
        "id": 14,
        "image": "http://127.0.0.1:3000/images/end_logo.png",
        "name": "广告位招租",
        "phone": "无",
        "address": "无",
        "businessHours": "null"
    },
    {
        "id": 15,
        "image": "http://127.0.0.1:3000/images/end_logo.png",
        "name": "广告位招租",
        "phone": "无",
        "address": "无",
        "businessHours": "null"
    },
    {
        "id": 16,
        "image": "http://127.0.0.1:3000/images/end_logo.png",
        "name": "广告位招租",
        "phone": "无",
        "address": "无",
        "businessHours": "null"
    },
    {
        "id": 17,
        "image": "http://127.0.0.1:3000/images/end_logo.png",
        "name": "广告位招租",
        "phone": "无",
        "address": "无",
        "businessHours": "null"
    },
    {
        "id": 18,
        "image": "http://127.0.0.1:3000/images/end_logo.png",
        "name": "广告位招租",
        "phone": "无",
        "address": "无",
        "businessHours": "null"
    },
    {
        "id": 19,
        "image": "http://127.0.0.1:3000/images/end_logo.png",
        "name": "广告位招租",
        "phone": "无",
        "address": "无",
        "businessHours": "null"
    },
    {
        "id": 20,
        "image": "http://127.0.0.1:3000/images/end_logo.png",
        "name": "广告位招租",
        "phone": "无",
        "address": "无",
        "businessHours": "null"
    },
    {
        "id": 21,
        "image": "http://127.0.0.1:3000/images/end_logo.png",
        "name": "广告位招租",
        "phone": "无",
        "address": "无",
        "businessHours": "null"
    },
    {
        "id": 22,
        "image": "http://127.0.0.1:3000/images/end_logo.png",
        "name": "广告位招租",
        "phone": "无",
        "address": "无",
        "businessHours": "null"
    },
    {
        "id": 23,
        "image": "http://127.0.0.1:3000/images/end_logo.png",
        "name": "广告位招租",
        "phone": "无",
        "address": "无",
        "businessHours": "null"
    },
    {
        "id": 24,
        "image": "http://127.0.0.1:3000/images/end_logo.png",
        "name": "广告位招租",
        "phone": "无",
        "address": "无",
        "businessHours": "null"
    },
    {
        "id": 25,
        "image": "http://127.0.0.1:3000/images/end_logo.png",
        "name": "广告位招租",
        "phone": "无",
        "address": "无",
        "businessHours": "null"
    },
    {
        "id": 26,
        "image": "http://127.0.0.1:3000/images/end_logo.png",
        "name": "广告位招租",
        "phone": "无",
        "address": "无",
        "businessHours": "null"
    }
]